{
  "type": "FeatureCollection",
  "features": [
    {
      "type": "Feature",
      "geometry": {
        "type": "Point",
        "coordinates": [
          175.66383333333334,
          -40.36511111111111
        ]
      },
      "properties": {
        "id": "645842900",
        "type": "VRP",
        "designator": "VN000",
        "name": "Aokautere",
        "remark": "VRP"
      }
    },
    {
      "type": "Feature",
      "geometry": {
        "type": "Point",
        "coordinates": [
          175.7551388888889,
          -40.28861111111111
        ]
      },
      "properties": {
        "id": "645842903",
        "type": "VRP",
        "designator": "VN001",
        "name": "Ashhurst",
        "remark": "VRP"
      }
    },
    {
      "type": "Feature",
      "geometry": {
        "type": "Point",
        "coordinates": [
          175.96908333333334,
          -37.44822222222222
        ]
      },
      "properties": {
        "id": "645842906",
        "type": "VRP",
        "designator": "VN002",
        "name": "Athenree",
        "remark": "VRP"
      }
    },
    {
      "type": "Feature",
      "geometry": {
        "type": "Point",
        "coordinates": [
          174.9435,
          -41.18494444444444
        ]
      },
      "properties": {
        "id": "645842909",
        "type": "VRP",
        "designator": "VN003",
        "name": "Avalon",
        "remark": "VRP"
      }
    },
    {
      "type": "Feature",
      "geometry": {
        "type": "Point",
        "coordinates": [
          174.69016666666667,
          -36.89819444444444
        ]
      },
      "properties": {
        "id": "645842912",
        "type": "VRP",
        "designator": "VN004",
        "name": "Avondale Racecourse",
        "remark": "VRP"
      }
    },
    {
      "type": "Feature",
      "geometry": {
        "type": "Point",
        "coordinates": [
          176.92241666666666,
          -39.553527777777774
        ]
      },
      "properties": {
        "id": "645842915",
        "type": "VRP",
        "designator": "VN005",
        "name": "Awatoto",
        "remark": "VRP"
      }
    },
    {
      "type": "Feature",
      "geometry": {
        "type": "Point",
        "coordinates": [
          174.86766666666668,
          -41.409666666666666
        ]
      },
      "properties": {
        "id": "645842918",
        "type": "VRP",
        "designator": "VN006",
        "name": "Baring",
        "remark": "VRP"
      }
    },
    {
      "type": "Feature",
      "geometry": {
        "type": "Point",
        "coordinates": [
          177.898,
          -38.84075
        ]
      },
      "properties": {
        "id": "645842921",
        "type": "VRP",
        "designator": "VN007",
        "name": "Bartletts",
        "remark": "VRP"
      }
    },
    {
      "type": "Feature",
      "geometry": {
        "type": "Point",
        "coordinates": [
          176.28266666666667,
          -37.69533333333333
        ]
      },
      "properties": {
        "id": "645842927",
        "type": "VRP",
        "designator": "VN009",
        "name": "Beach Motor Camp",
        "remark": "VRP"
      }
    },
    {
      "type": "Feature",
      "geometry": {
        "type": "Point",
        "coordinates": [
          174.87405555555557,
          -41.18355555555555
        ]
      },
      "properties": {
        "id": "645842930",
        "type": "VRP",
        "designator": "VN010",
        "name": "Belmont Hill",
        "remark": "VRP"
      }
    },
    {
      "type": "Feature",
      "geometry": {
        "type": "Point",
        "coordinates": [
          175.75472222222223,
          -40.97555555555556
        ]
      },
      "properties": {
        "id": "645842933",
        "type": "VRP",
        "designator": "VN011",
        "name": "Bennetts Hill",
        "remark": "VRP"
      }
    },
    {
      "type": "Feature",
      "geometry": {
        "type": "Point",
        "coordinates": [
          174.7068611111111,
          -36.925999999999995
        ]
      },
      "properties": {
        "id": "645842936",
        "type": "VRP",
        "designator": "VN012",
        "name": "Blockhouse Bay",
        "remark": "VRP"
      }
    },
    {
      "type": "Feature",
      "geometry": {
        "type": "Point",
        "coordinates": [
          176.0643611111111,
          -38.68683333333333
        ]
      },
      "properties": {
        "id": "645842939",
        "type": "VRP",
        "designator": "VN013",
        "name": "Boat Harbour",
        "remark": "VRP"
      }
    },
    {
      "type": "Feature",
      "geometry": {
        "type": "Point",
        "coordinates": [
          174.5835277777778,
          -36.04819444444444
        ]
      },
      "properties": {
        "id": "645842942",
        "type": "VRP",
        "designator": "VN014",
        "name": "Breamtail Head",
        "remark": "VRP"
      }
    },
    {
      "type": "Feature",
      "geometry": {
        "type": "Point",
        "coordinates": [
          174.99405555555555,
          -36.98661111111111
        ]
      },
      "properties": {
        "id": "645842945",
        "type": "VRP",
        "designator": "VN015",
        "name": "Brookby",
        "remark": "VRP"
      }
    },
    {
      "type": "Feature",
      "geometry": {
        "type": "Point",
        "coordinates": [
          175.63794444444443,
          -40.280499999999996
        ]
      },
      "properties": {
        "id": "645842948",
        "type": "VRP",
        "designator": "VN016",
        "name": "Bunnythorpe Substation",
        "remark": "VRP"
      }
    },
    {
      "type": "Feature",
      "geometry": {
        "type": "Point",
        "coordinates": [
          175.47,
          -37.89480555555556
        ]
      },
      "properties": {
        "id": "645842951",
        "type": "VRP",
        "designator": "VN017",
        "name": "Cambridge",
        "remark": "VRP"
      }
    },
    {
      "type": "Feature",
      "geometry": {
        "type": "Point",
        "coordinates": [
          174.8168611111111,
          -36.281527777777775
        ]
      },
      "properties": {
        "id": "645842954",
        "type": "VRP",
        "designator": "VN018",
        "name": "Cape Rodney",
        "remark": "VRP"
      }
    },
    {
      "type": "Feature",
      "geometry": {
        "type": "Point",
        "coordinates": [
          175.6606111111111,
          -40.138194444444444
        ]
      },
      "properties": {
        "id": "645842957",
        "type": "VRP",
        "designator": "VN019",
        "name": "Cheltenham",
        "remark": "VRP"
      }
    },
    {
      "type": "Feature",
      "geometry": {
        "type": "Point",
        "coordinates": [
          174.69761111111112,
          -37.13558333333333
        ]
      },
      "properties": {
        "id": "645842960",
        "type": "VRP",
        "designator": "VN020",
        "name": "Clarks Beach",
        "remark": "VRP"
      }
    },
    {
      "type": "Feature",
      "geometry": {
        "type": "Point",
        "coordinates": [
          174.85380555555554,
          -37.02930555555555
        ]
      },
      "properties": {
        "id": "645842963",
        "type": "VRP",
        "designator": "VN021",
        "name": "Clendon Park",
        "remark": "VRP"
      }
    },
    {
      "type": "Feature",
      "geometry": {
        "type": "Point",
        "coordinates": [
          175.03741666666667,
          -36.99144444444445
        ]
      },
      "properties": {
        "id": "645842966",
        "type": "VRP",
        "designator": "VN022",
        "name": "Clevedon",
        "remark": "VRP"
      }
    },
    {
      "type": "Feature",
      "geometry": {
        "type": "Point",
        "coordinates": [
          176.91325,
          -39.58491666666667
        ]
      },
      "properties": {
        "id": "645842969",
        "type": "VRP",
        "designator": "VN023",
        "name": "Clive",
        "remark": "VRP"
      }
    },
    {
      "type": "Feature",
      "geometry": {
        "type": "Point",
        "coordinates": [
          175.64705555555554,
          -40.226111111111116
        ]
      },
      "properties": {
        "id": "645842972",
        "type": "VRP",
        "designator": "VN024",
        "name": "Colyton",
        "remark": "VRP"
      }
    },
    {
      "type": "Feature",
      "geometry": {
        "type": "Point",
        "coordinates": [
          174.6051388888889,
          -37.011722222222225
        ]
      },
      "properties": {
        "id": "645842975",
        "type": "VRP",
        "designator": "VN025",
        "name": "Cornwallis",
        "remark": "VRP"
      }
    },
    {
      "type": "Feature",
      "geometry": {
        "type": "Point",
        "coordinates": [
          175.50083333333333,
          -36.755694444444444
        ]
      },
      "properties": {
        "id": "645842978",
        "type": "VRP",
        "designator": "VN026",
        "name": "Coromandel Town",
        "remark": "VRP"
      }
    },
    {
      "type": "Feature",
      "geometry": {
        "type": "Point",
        "coordinates": [
          174.9471388888889,
          -37.10375
        ]
      },
      "properties": {
        "id": "645842981",
        "type": "VRP",
        "designator": "VN027",
        "name": "Drury",
        "remark": "VRP"
      }
    },
    {
      "type": "Feature",
      "geometry": {
        "type": "Point",
        "coordinates": [
          176.82175,
          -39.38811111111111
        ]
      },
      "properties": {
        "id": "645842984",
        "type": "VRP",
        "designator": "VN028",
        "name": "Eskdale",
        "remark": "VRP"
      }
    },
    {
      "type": "Feature",
      "geometry": {
        "type": "Point",
        "coordinates": [
          175.57083333333333,
          -40.19597222222222
        ]
      },
      "properties": {
        "id": "645842987",
        "type": "VRP",
        "designator": "VN029",
        "name": "Feilding",
        "remark": "VRP"
      }
    },
    {
      "type": "Feature",
      "geometry": {
        "type": "Point",
        "coordinates": [
          176.761,
          -39.58744444444444
        ]
      },
      "properties": {
        "id": "645842990",
        "type": "VRP",
        "designator": "VN030",
        "name": "Fernhill",
        "remark": "VRP"
      }
    },
    {
      "type": "Feature",
      "geometry": {
        "type": "Point",
        "coordinates": [
          175.20433333333332,
          -39.96047222222222
        ]
      },
      "properties": {
        "id": "645842996",
        "type": "VRP",
        "designator": "VN032",
        "name": "Fordell",
        "remark": "VRP"
      }
    },
    {
      "type": "Feature",
      "geometry": {
        "type": "Point",
        "coordinates": [
          174.1323888888889,
          -39.186027777777774
        ]
      },
      "properties": {
        "id": "645842999",
        "type": "VRP",
        "designator": "VN033",
        "name": "German Hill",
        "remark": "VRP"
      }
    },
    {
      "type": "Feature",
      "geometry": {
        "type": "Point",
        "coordinates": [
          174.72961111111113,
          -37.20652777777778
        ]
      },
      "properties": {
        "id": "645843002",
        "type": "VRP",
        "designator": "VN034",
        "name": "Glenbrook",
        "remark": "VRP"
      }
    },
    {
      "type": "Feature",
      "geometry": {
        "type": "Point",
        "coordinates": [
          175.30505555555555,
          -37.67038888888889
        ]
      },
      "properties": {
        "id": "645843005",
        "type": "VRP",
        "designator": "VN035",
        "name": "Gordonton",
        "remark": "VRP"
      }
    },
    {
      "type": "Feature",
      "geometry": {
        "type": "Point",
        "coordinates": [
          176.34547222222224,
          -38.2085
        ]
      },
      "properties": {
        "id": "645843008",
        "type": "VRP",
        "designator": "VN036",
        "name": "Green Lake",
        "remark": "VRP"
      }
    },
    {
      "type": "Feature",
      "geometry": {
        "type": "Point",
        "coordinates": [
          176.4443611111111,
          -39.72991666666667
        ]
      },
      "properties": {
        "id": "645843011",
        "type": "VRP",
        "designator": "VN037",
        "name": "Gwavas",
        "remark": "VRP"
      }
    },
    {
      "type": "Feature",
      "geometry": {
        "type": "Point",
        "coordinates": [
          175.4951111111111,
          -40.14802777777778
        ]
      },
      "properties": {
        "id": "645843014",
        "type": "VRP",
        "designator": "VN038",
        "name": "Halcombe",
        "remark": "VRP"
      }
    },
    {
      "type": "Feature",
      "geometry": {
        "type": "Point",
        "coordinates": [
          176.25505555555554,
          -38.03333333333333
        ]
      },
      "properties": {
        "id": "645843017",
        "type": "VRP",
        "designator": "VN039",
        "name": "Hamurana",
        "remark": "VRP"
      }
    },
    {
      "type": "Feature",
      "geometry": {
        "type": "Point",
        "coordinates": [
          174.83655555555558,
          -41.34577777777778
        ]
      },
      "properties": {
        "id": "645843020",
        "type": "VRP",
        "designator": "VN040",
        "name": "Harbour Entrance",
        "remark": "VRP"
      }
    },
    {
      "type": "Feature",
      "geometry": {
        "type": "Point",
        "coordinates": [
          176.01158333333333,
          -38.85241666666667
        ]
      },
      "properties": {
        "id": "645843023",
        "type": "VRP",
        "designator": "VN041",
        "name": "Hatepe",
        "remark": "VRP"
      }
    },
    {
      "type": "Feature",
      "geometry": {
        "type": "Point",
        "coordinates": [
          175.44408333333334,
          -39.22936111111111
        ]
      },
      "properties": {
        "id": "645843026",
        "type": "VRP",
        "designator": "VN042",
        "name": "Hauhungatahi",
        "remark": "VRP"
      }
    },
    {
      "type": "Feature",
      "geometry": {
        "type": "Point",
        "coordinates": [
          175.4545,
          -37.85988888888889
        ]
      },
      "properties": {
        "id": "645843029",
        "type": "VRP",
        "designator": "VN043",
        "name": "Hautapu",
        "remark": "VRP"
      }
    },
    {
      "type": "Feature",
      "geometry": {
        "type": "Point",
        "coordinates": [
          176.8771388888889,
          -39.67019444444444
        ]
      },
      "properties": {
        "id": "645843032",
        "type": "VRP",
        "designator": "VN044",
        "name": "Havelock North",
        "remark": "VRP"
      }
    },
    {
      "type": "Feature",
      "geometry": {
        "type": "Point",
        "coordinates": [
          174.9812777777778,
          -41.14966666666667
        ]
      },
      "properties": {
        "id": "645843035",
        "type": "VRP",
        "designator": "VN045",
        "name": "Haywards",
        "remark": "VRP"
      }
    },
    {
      "type": "Feature",
      "geometry": {
        "type": "Point",
        "coordinates": [
          174.45005555555554,
          -36.67369444444444
        ]
      },
      "properties": {
        "id": "645843038",
        "type": "VRP",
        "designator": "VN046",
        "name": "Helensville",
        "remark": "VRP"
      }
    },
    {
      "type": "Feature",
      "geometry": {
        "type": "Point",
        "coordinates": [
          175.22794444444443,
          -40.37327777777778
        ]
      },
      "properties": {
        "id": "645843041",
        "type": "VRP",
        "designator": "VN047",
        "name": "Himatangi Beach",
        "remark": "VRP"
      }
    },
    {
      "type": "Feature",
      "geometry": {
        "type": "Point",
        "coordinates": [
          174.90755555555558,
          -37.086222222222226
        ]
      },
      "properties": {
        "id": "645843044",
        "type": "VRP",
        "designator": "VN048",
        "name": "Hingaia Bridge",
        "remark": "VRP"
      }
    },
    {
      "type": "Feature",
      "geometry": {
        "type": "Point",
        "coordinates": [
          175.76,
          -37.882111111111115
        ]
      },
      "properties": {
        "id": "645843047",
        "type": "VRP",
        "designator": "VN049",
        "name": "Hinuera",
        "remark": "VRP"
      }
    },
    {
      "type": "Feature",
      "geometry": {
        "type": "Point",
        "coordinates": [
          175.19033333333334,
          -40.594861111111115
        ]
      },
      "properties": {
        "id": "645843050",
        "type": "VRP",
        "designator": "VN050",
        "name": "Hokio Beach",
        "remark": "VRP"
      }
    },
    {
      "type": "Feature",
      "geometry": {
        "type": "Point",
        "coordinates": [
          177.76188888888888,
          -38.809916666666666
        ]
      },
      "properties": {
        "id": "645843053",
        "type": "VRP",
        "designator": "VN051",
        "name": "Horoto",
        "remark": "VRP"
      }
    },
    {
      "type": "Feature",
      "geometry": {
        "type": "Point",
        "coordinates": [
          174.92491666666666,
          -36.878194444444446
        ]
      },
      "properties": {
        "id": "645843056",
        "type": "VRP",
        "designator": "VN052",
        "name": "Howick",
        "remark": "VRP"
      }
    },
    {
      "type": "Feature",
      "geometry": {
        "type": "Point",
        "coordinates": [
          176.08936111111112,
          -38.64933333333333
        ]
      },
      "properties": {
        "id": "645843059",
        "type": "VRP",
        "designator": "VN053",
        "name": "Huka Falls",
        "remark": "VRP"
      }
    },
    {
      "type": "Feature",
      "geometry": {
        "type": "Point",
        "coordinates": [
          176.10725,
          -37.60947222222222
        ]
      },
      "properties": {
        "id": "645843062",
        "type": "VRP",
        "designator": "VN054",
        "name": "Hunters Creek",
        "remark": "VRP"
      }
    },
    {
      "type": "Feature",
      "geometry": {
        "type": "Point",
        "coordinates": [
          175.5691388888889,
          -39.93658333333333
        ]
      },
      "properties": {
        "id": "645843065",
        "type": "VRP",
        "designator": "VN055",
        "name": "Hunterville",
        "remark": "VRP"
      }
    },
    {
      "type": "Feature",
      "geometry": {
        "type": "Point",
        "coordinates": [
          175.15847222222223,
          -37.56194444444444
        ]
      },
      "properties": {
        "id": "645843068",
        "type": "VRP",
        "designator": "VN056",
        "name": "Huntly",
        "remark": "VRP"
      }
    },
    {
      "type": "Feature",
      "geometry": {
        "type": "Point",
        "coordinates": [
          175.07077777777778,
          -37.07841666666667
        ]
      },
      "properties": {
        "id": "645843071",
        "type": "VRP",
        "designator": "VN057",
        "name": "Hunua",
        "remark": "VRP"
      }
    },
    {
      "type": "Feature",
      "geometry": {
        "type": "Point",
        "coordinates": [
          174.77294444444445,
          -41.34966666666667
        ]
      },
      "properties": {
        "id": "645843074",
        "type": "VRP",
        "designator": "VN058",
        "name": "Island Bay",
        "remark": "VRP"
      }
    },
    {
      "type": "Feature",
      "geometry": {
        "type": "Point",
        "coordinates": [
          176.23713888888886,
          -37.99377777777778
        ]
      },
      "properties": {
        "id": "645843077",
        "type": "VRP",
        "designator": "VN059",
        "name": "Kaharoa",
        "remark": "VRP"
      }
    },
    {
      "type": "Feature",
      "geometry": {
        "type": "Point",
        "coordinates": [
          174.92572222222222,
          -39.84741666666667
        ]
      },
      "properties": {
        "id": "645843080",
        "type": "VRP",
        "designator": "VN060",
        "name": "Kai Iwi",
        "remark": "VRP"
      }
    },
    {
      "type": "Feature",
      "geometry": {
        "type": "Point",
        "coordinates": [
          176.56569444444446,
          -38.4085
        ]
      },
      "properties": {
        "id": "645843083",
        "type": "VRP",
        "designator": "VN061",
        "name": "Kaingaroa",
        "remark": "VRP"
      }
    },
    {
      "type": "Feature",
      "geometry": {
        "type": "Point",
        "coordinates": [
          174.92825,
          -37.077083333333334
        ]
      },
      "properties": {
        "id": "645843086",
        "type": "VRP",
        "designator": "VN062",
        "name": "Karaka",
        "remark": "VRP"
      }
    },
    {
      "type": "Feature",
      "geometry": {
        "type": "Point",
        "coordinates": [
          175.80047222222223,
          -38.79519444444444
        ]
      },
      "properties": {
        "id": "645843089",
        "type": "VRP",
        "designator": "VN063",
        "name": "Karangahape",
        "remark": "VRP"
      }
    },
    {
      "type": "Feature",
      "geometry": {
        "type": "Point",
        "coordinates": [
          176.13180555555556,
          -37.529666666666664
        ]
      },
      "properties": {
        "id": "645843092",
        "type": "VRP",
        "designator": "VN064",
        "name": "Karewa Island",
        "remark": "VRP"
      }
    },
    {
      "type": "Feature",
      "geometry": {
        "type": "Point",
        "coordinates": [
          175.55686111111112,
          -39.474916666666665
        ]
      },
      "properties": {
        "id": "645843095",
        "type": "VRP",
        "designator": "VN065",
        "name": "Karioi Aerodrome",
        "remark": "VRP"
      }
    },
    {
      "type": "Feature",
      "geometry": {
        "type": "Point",
        "coordinates": [
          174.65183333333334,
          -41.343833333333336
        ]
      },
      "properties": {
        "id": "645843098",
        "type": "VRP",
        "designator": "VN066",
        "name": "Karori Rock",
        "remark": "VRP"
      }
    },
    {
      "type": "Feature",
      "geometry": {
        "type": "Point",
        "coordinates": [
          175.9229722222222,
          -37.55211111111111
        ]
      },
      "properties": {
        "id": "645843101",
        "type": "VRP",
        "designator": "VN067",
        "name": "Katikati",
        "remark": "VRP"
      }
    },
    {
      "type": "Feature",
      "geometry": {
        "type": "Point",
        "coordinates": [
          176.24638888888887,
          -38.10527777777778
        ]
      },
      "properties": {
        "id": "645843107",
        "type": "VRP",
        "designator": "VN069",
        "name": "Kawaha Point",
        "remark": "VRP"
      }
    },
    {
      "type": "Feature",
      "geometry": {
        "type": "Point",
        "coordinates": [
          175.1692222222222,
          -36.948166666666665
        ]
      },
      "properties": {
        "id": "645843110",
        "type": "VRP",
        "designator": "VN070",
        "name": "Kawakawa Bay",
        "remark": "VRP"
      }
    },
    {
      "type": "Feature",
      "geometry": {
        "type": "Point",
        "coordinates": [
          176.7096388888889,
          -38.086000000000006
        ]
      },
      "properties": {
        "id": "645843113",
        "type": "VRP",
        "designator": "VN071",
        "name": "Kawerau Village",
        "remark": "VRP"
      }
    },
    {
      "type": "Feature",
      "geometry": {
        "type": "Point",
        "coordinates": [
          175.64852777777776,
          -39.10713888888889
        ]
      },
      "properties": {
        "id": "645843116",
        "type": "VRP",
        "designator": "VN072",
        "name": "Ketetahi Hot Springs",
        "remark": "VRP"
      }
    },
    {
      "type": "Feature",
      "geometry": {
        "type": "Point",
        "coordinates": [
          175.34525000000002,
          -38.038916666666665
        ]
      },
      "properties": {
        "id": "645843119",
        "type": "VRP",
        "designator": "VN073",
        "name": "Kihikihi",
        "remark": "VRP"
      }
    },
    {
      "type": "Feature",
      "geometry": {
        "type": "Point",
        "coordinates": [
          174.8001388888889,
          -37.13022222222222
        ]
      },
      "properties": {
        "id": "645843122",
        "type": "VRP",
        "designator": "VN074",
        "name": "Kingseat",
        "remark": "VRP"
      }
    },
    {
      "type": "Feature",
      "geometry": {
        "type": "Point",
        "coordinates": [
          175.92019444444443,
          -38.6635
        ]
      },
      "properties": {
        "id": "645843125",
        "type": "VRP",
        "designator": "VN075",
        "name": "Kinloch",
        "remark": "VRP"
      }
    },
    {
      "type": "Feature",
      "geometry": {
        "type": "Point",
        "coordinates": [
          176.70019444444443,
          -39.78158333333333
        ]
      },
      "properties": {
        "id": "645843128",
        "type": "VRP",
        "designator": "VN076",
        "name": "Lake Poukawa",
        "remark": "VRP"
      }
    },
    {
      "type": "Feature",
      "geometry": {
        "type": "Point",
        "coordinates": [
          174.76594444444444,
          -36.78069444444444
        ]
      },
      "properties": {
        "id": "645843131",
        "type": "VRP",
        "designator": "VN077",
        "name": "Lake Pupuke",
        "remark": "VRP"
      }
    },
    {
      "type": "Feature",
      "geometry": {
        "type": "Point",
        "coordinates": [
          175.71686111111111,
          -39.06491666666666
        ]
      },
      "properties": {
        "id": "645843134",
        "type": "VRP",
        "designator": "VN078",
        "name": "Lake Rotoaira",
        "remark": "VRP"
      }
    },
    {
      "type": "Feature",
      "geometry": {
        "type": "Point",
        "coordinates": [
          176.18713888888888,
          -38.63155555555556
        ]
      },
      "properties": {
        "id": "645843137",
        "type": "VRP",
        "designator": "VN079",
        "name": "Lake Rotokawa",
        "remark": "VRP"
      }
    },
    {
      "type": "Feature",
      "geometry": {
        "type": "Point",
        "coordinates": [
          176.3725,
          -38.06916666666667
        ]
      },
      "properties": {
        "id": "645843140",
        "type": "VRP",
        "designator": "VN080",
        "name": "Lake Rotokawau",
        "remark": "VRP"
      }
    },
    {
      "type": "Feature",
      "geometry": {
        "type": "Point",
        "coordinates": [
          175.199,
          -37.43558333333333
        ]
      },
      "properties": {
        "id": "645843143",
        "type": "VRP",
        "designator": "VN081",
        "name": "Lake Waikare",
        "remark": "VRP"
      }
    },
    {
      "type": "Feature",
      "geometry": {
        "type": "Point",
        "coordinates": [
          174.21072222222222,
          -39.06019444444444
        ]
      },
      "properties": {
        "id": "645843146",
        "type": "VRP",
        "designator": "VN082",
        "name": "Lepperton",
        "remark": "VRP"
      }
    },
    {
      "type": "Feature",
      "geometry": {
        "type": "Point",
        "coordinates": [
          175.28666666666666,
          -40.621694444444444
        ]
      },
      "properties": {
        "id": "645843149",
        "type": "VRP",
        "designator": "VN083",
        "name": "Levin",
        "remark": "VRP"
      }
    },
    {
      "type": "Feature",
      "geometry": {
        "type": "Point",
        "coordinates": [
          175.5408888888889,
          -40.38461111111111
        ]
      },
      "properties": {
        "id": "645843152",
        "type": "VRP",
        "designator": "VN084",
        "name": "Longburn",
        "remark": "VRP"
      }
    },
    {
      "type": "Feature",
      "geometry": {
        "type": "Point",
        "coordinates": [
          174.2950277777778,
          -35.77475
        ]
      },
      "properties": {
        "id": "645843155",
        "type": "VRP",
        "designator": "VN085",
        "name": "Lookout Hill",
        "remark": "VRP"
      }
    },
    {
      "type": "Feature",
      "geometry": {
        "type": "Point",
        "coordinates": [
          175.60769444444443,
          -39.20075
        ]
      },
      "properties": {
        "id": "645843158",
        "type": "VRP",
        "designator": "VN086",
        "name": "Lower Tama Lake",
        "remark": "VRP"
      }
    },
    {
      "type": "Feature",
      "geometry": {
        "type": "Point",
        "coordinates": [
          176.45463888888887,
          -37.75377777777778
        ]
      },
      "properties": {
        "id": "645843164",
        "type": "VRP",
        "designator": "VN088",
        "name": "Maketu",
        "remark": "VRP"
      }
    },
    {
      "type": "Feature",
      "geometry": {
        "type": "Point",
        "coordinates": [
          178.12577777777778,
          -38.650194444444445
        ]
      },
      "properties": {
        "id": "645843167",
        "type": "VRP",
        "designator": "VN089",
        "name": "Makorori",
        "remark": "VRP"
      }
    },
    {
      "type": "Feature",
      "geometry": {
        "type": "Point",
        "coordinates": [
          176.07825,
          -38.09572222222222
        ]
      },
      "properties": {
        "id": "645843170",
        "type": "VRP",
        "designator": "VN090",
        "name": "Mamaku",
        "remark": "VRP"
      }
    },
    {
      "type": "Feature",
      "geometry": {
        "type": "Point",
        "coordinates": [
          174.781,
          -41.07855555555556
        ]
      },
      "properties": {
        "id": "645843173",
        "type": "VRP",
        "designator": "VN091",
        "name": "Mana Island",
        "remark": "VRP"
      }
    },
    {
      "type": "Feature",
      "geometry": {
        "type": "Point",
        "coordinates": [
          175.76630555555556,
          -37.63475
        ]
      },
      "properties": {
        "id": "645843176",
        "type": "VRP",
        "designator": "VN092",
        "name": "Manawaru",
        "remark": "VRP"
      }
    },
    {
      "type": "Feature",
      "geometry": {
        "type": "Point",
        "coordinates": [
          175.21530555555555,
          -40.47691666666667
        ]
      },
      "properties": {
        "id": "645843179",
        "type": "VRP",
        "designator": "VN093",
        "name": "Manawatu River Mouth",
        "remark": "VRP"
      }
    },
    {
      "type": "Feature",
      "geometry": {
        "type": "Point",
        "coordinates": [
          175.56183333333334,
          -40.24188888888889
        ]
      },
      "properties": {
        "id": "645843182",
        "type": "VRP",
        "designator": "VN094",
        "name": "Manfeild",
        "remark": "VRP"
      }
    },
    {
      "type": "Feature",
      "geometry": {
        "type": "Point",
        "coordinates": [
          174.5835277777778,
          -36.08986111111111
        ]
      },
      "properties": {
        "id": "645843185",
        "type": "VRP",
        "designator": "VN095",
        "name": "Mangawhai Heads",
        "remark": "VRP"
      }
    },
    {
      "type": "Feature",
      "geometry": {
        "type": "Point",
        "coordinates": [
          174.78847222222223,
          -36.93402777777777
        ]
      },
      "properties": {
        "id": "645843188",
        "type": "VRP",
        "designator": "VN096",
        "name": "Mangere Bridge",
        "remark": "VRP"
      }
    },
    {
      "type": "Feature",
      "geometry": {
        "type": "Point",
        "coordinates": [
          174.79825,
          -36.97013888888889
        ]
      },
      "properties": {
        "id": "645843191",
        "type": "VRP",
        "designator": "VN097",
        "name": "Mangere Town",
        "remark": "VRP"
      }
    },
    {
      "type": "Feature",
      "geometry": {
        "type": "Point",
        "coordinates": [
          174.52266666666668,
          -37.055416666666666
        ]
      },
      "properties": {
        "id": "645843194",
        "type": "VRP",
        "designator": "VN098",
        "name": "Manukau Heads",
        "remark": "VRP"
      }
    },
    {
      "type": "Feature",
      "geometry": {
        "type": "Point",
        "coordinates": [
          177.91133333333335,
          -38.678527777777774
        ]
      },
      "properties": {
        "id": "645843197",
        "type": "VRP",
        "designator": "VN099",
        "name": "Manutuke",
        "remark": "VRP"
      }
    },
    {
      "type": "Feature",
      "geometry": {
        "type": "Point",
        "coordinates": [
          176.6243611111111,
          -39.65047222222222
        ]
      },
      "properties": {
        "id": "645843200",
        "type": "VRP",
        "designator": "VN100",
        "name": "Maraekakaho",
        "remark": "VRP"
      }
    },
    {
      "type": "Feature",
      "geometry": {
        "type": "Point",
        "coordinates": [
          175.23494444444444,
          -37.25313888888889
        ]
      },
      "properties": {
        "id": "645843203",
        "type": "VRP",
        "designator": "VN101",
        "name": "Maramarua",
        "remark": "VRP"
      }
    },
    {
      "type": "Feature",
      "geometry": {
        "type": "Point",
        "coordinates": [
          175.38894444444443,
          -40.08383333333334
        ]
      },
      "properties": {
        "id": "645843206",
        "type": "VRP",
        "designator": "VN102",
        "name": "Marton",
        "remark": "VRP"
      }
    },
    {
      "type": "Feature",
      "geometry": {
        "type": "Point",
        "coordinates": [
          175.39094444444444,
          -39.99622222222222
        ]
      },
      "properties": {
        "id": "645843209",
        "type": "VRP",
        "designator": "VN103",
        "name": "Marton Reservoir",
        "remark": "VRP"
      }
    },
    {
      "type": "Feature",
      "geometry": {
        "type": "Point",
        "coordinates": [
          175.39555555555555,
          -37.80361111111111
        ]
      },
      "properties": {
        "id": "645843212",
        "type": "VRP",
        "designator": "VN104",
        "name": "Matangi",
        "remark": "VRP"
      }
    },
    {
      "type": "Feature",
      "geometry": {
        "type": "Point",
        "coordinates": [
          174.35016666666667,
          -36.11486111111111
        ]
      },
      "properties": {
        "id": "645843215",
        "type": "VRP",
        "designator": "VN105",
        "name": "Maungaturoto",
        "remark": "VRP"
      }
    },
    {
      "type": "Feature",
      "geometry": {
        "type": "Point",
        "coordinates": [
          174.84563888888889,
          -37.013083333333334
        ]
      },
      "properties": {
        "id": "645843218",
        "type": "VRP",
        "designator": "VN106",
        "name": "Mclaughlins Mountain",
        "remark": "VRP"
      }
    },
    {
      "type": "Feature",
      "geometry": {
        "type": "Point",
        "coordinates": [
          175.06674999999998,
          -37.32580555555556
        ]
      },
      "properties": {
        "id": "645843221",
        "type": "VRP",
        "designator": "VN107",
        "name": "Meremere",
        "remark": "VRP"
      }
    },
    {
      "type": "Feature",
      "geometry": {
        "type": "Point",
        "coordinates": [
          175.9293611111111,
          -38.90519444444444
        ]
      },
      "properties": {
        "id": "645843224",
        "type": "VRP",
        "designator": "VN108",
        "name": "Mission Bay",
        "remark": "VRP"
      }
    },
    {
      "type": "Feature",
      "geometry": {
        "type": "Point",
        "coordinates": [
          177.1918611111111,
          -39.12547222222222
        ]
      },
      "properties": {
        "id": "645843227",
        "type": "VRP",
        "designator": "VN109",
        "name": "Mohaka River Mouth",
        "remark": "VRP"
      }
    },
    {
      "type": "Feature",
      "geometry": {
        "type": "Point",
        "coordinates": [
          176.28583333333333,
          -38.080555555555556
        ]
      },
      "properties": {
        "id": "645843230",
        "type": "VRP",
        "designator": "VN110",
        "name": "Mokoia Island",
        "remark": "VRP"
      }
    },
    {
      "type": "Feature",
      "geometry": {
        "type": "Point",
        "coordinates": [
          175.52786111111112,
          -37.658
        ]
      },
      "properties": {
        "id": "645843233",
        "type": "VRP",
        "designator": "VN111",
        "name": "Morrinsville",
        "remark": "VRP"
      }
    },
    {
      "type": "Feature",
      "geometry": {
        "type": "Point",
        "coordinates": [
          175.94269444444444,
          -38.85380555555556
        ]
      },
      "properties": {
        "id": "645843236",
        "type": "VRP",
        "designator": "VN112",
        "name": "Motutaiko Island",
        "remark": "VRP"
      }
    },
    {
      "type": "Feature",
      "geometry": {
        "type": "Point",
        "coordinates": [
          176.23958333333331,
          -37.72991666666667
        ]
      },
      "properties": {
        "id": "645843239",
        "type": "VRP",
        "designator": "VN113",
        "name": "Mount Baldy",
        "remark": "VRP"
      }
    },
    {
      "type": "Feature",
      "geometry": {
        "type": "Point",
        "coordinates": [
          175.14341666666667,
          -41.15038888888889
        ]
      },
      "properties": {
        "id": "645843242",
        "type": "VRP",
        "designator": "VN114",
        "name": "Mount Climie",
        "remark": "VRP"
      }
    },
    {
      "type": "Feature",
      "geometry": {
        "type": "Point",
        "coordinates": [
          176.16325,
          -37.6335
        ]
      },
      "properties": {
        "id": "645843245",
        "type": "VRP",
        "designator": "VN115",
        "name": "Mount Harbour Entrance",
        "remark": "VRP"
      }
    },
    {
      "type": "Feature",
      "geometry": {
        "type": "Point",
        "coordinates": [
          176.5185277777778,
          -38.223222222222226
        ]
      },
      "properties": {
        "id": "645843248",
        "type": "VRP",
        "designator": "VN116",
        "name": "Mount Tarawera",
        "remark": "VRP"
      }
    },
    {
      "type": "Feature",
      "geometry": {
        "type": "Point",
        "coordinates": [
          176.16333333333333,
          -38.69397222222222
        ]
      },
      "properties": {
        "id": "645843251",
        "type": "VRP",
        "designator": "VN117",
        "name": "Mount Tauhara",
        "remark": "VRP"
      }
    },
    {
      "type": "Feature",
      "geometry": {
        "type": "Point",
        "coordinates": [
          175.251,
          -40.76272222222222
        ]
      },
      "properties": {
        "id": "645843254",
        "type": "VRP",
        "designator": "VN118",
        "name": "Mount Thompson",
        "remark": "VRP"
      }
    },
    {
      "type": "Feature",
      "geometry": {
        "type": "Point",
        "coordinates": [
          175.28216666666668,
          -40.95177777777778
        ]
      },
      "properties": {
        "id": "645843257",
        "type": "VRP",
        "designator": "VN119",
        "name": "Mount Hector",
        "remark": "VRP"
      }
    },
    {
      "type": "Feature",
      "geometry": {
        "type": "Point",
        "coordinates": [
          175.5618611111111,
          -37.7905
        ]
      },
      "properties": {
        "id": "645843260",
        "type": "VRP",
        "designator": "VN120",
        "name": "Mount Ruru",
        "remark": "VRP"
      }
    },
    {
      "type": "Feature",
      "geometry": {
        "type": "Point",
        "coordinates": [
          174.97844444444445,
          -41.01275
        ]
      },
      "properties": {
        "id": "645843263",
        "type": "VRP",
        "designator": "VN121",
        "name": "Mount Wainui",
        "remark": "VRP"
      }
    },
    {
      "type": "Feature",
      "geometry": {
        "type": "Point",
        "coordinates": [
          177.92605555555554,
          -38.75297222222222
        ]
      },
      "properties": {
        "id": "645843266",
        "type": "VRP",
        "designator": "VN122",
        "name": "Muriwai",
        "remark": "VRP"
      }
    },
    {
      "type": "Feature",
      "geometry": {
        "type": "Point",
        "coordinates": [
          174.90186111111112,
          -36.84652777777778
        ]
      },
      "properties": {
        "id": "645843269",
        "type": "VRP",
        "designator": "VN123",
        "name": "Musick Point",
        "remark": "VRP"
      }
    },
    {
      "type": "Feature",
      "geometry": {
        "type": "Point",
        "coordinates": [
          175.35241666666667,
          -37.87266666666667
        ]
      },
      "properties": {
        "id": "645843272",
        "type": "VRP",
        "designator": "VN124",
        "name": "Mystery Creek",
        "remark": "VRP"
      }
    },
    {
      "type": "Feature",
      "geometry": {
        "type": "Point",
        "coordinates": [
          176.19325,
          -38.321000000000005
        ]
      },
      "properties": {
        "id": "645843275",
        "type": "VRP",
        "designator": "VN125",
        "name": "Ngakuru",
        "remark": "VRP"
      }
    },
    {
      "type": "Feature",
      "geometry": {
        "type": "Point",
        "coordinates": [
          175.4946388888889,
          -37.27611111111111
        ]
      },
      "properties": {
        "id": "645843278",
        "type": "VRP",
        "designator": "VN126",
        "name": "Ngatea",
        "remark": "VRP"
      }
    },
    {
      "type": "Feature",
      "geometry": {
        "type": "Point",
        "coordinates": [
          176.21369444444443,
          -38.07958333333334
        ]
      },
      "properties": {
        "id": "645843281",
        "type": "VRP",
        "designator": "VN127",
        "name": "Ngongotaha",
        "remark": "VRP"
      }
    },
    {
      "type": "Feature",
      "geometry": {
        "type": "Point",
        "coordinates": [
          174.81297222222224,
          -36.82908333333334
        ]
      },
      "properties": {
        "id": "645843287",
        "type": "VRP",
        "designator": "VN129",
        "name": "North Head",
        "remark": "VRP"
      }
    },
    {
      "type": "Feature",
      "geometry": {
        "type": "Point",
        "coordinates": [
          177.73938888888887,
          -39.04658333333333
        ]
      },
      "properties": {
        "id": "645843290",
        "type": "VRP",
        "designator": "VN130",
        "name": "Nuhaka",
        "remark": "VRP"
      }
    },
    {
      "type": "Feature",
      "geometry": {
        "type": "Point",
        "coordinates": [
          173.9546111111111,
          -39.120194444444444
        ]
      },
      "properties": {
        "id": "645843293",
        "type": "VRP",
        "designator": "VN131",
        "name": "Oakura",
        "remark": "VRP"
      }
    },
    {
      "type": "Feature",
      "geometry": {
        "type": "Point",
        "coordinates": [
          175.40797222222224,
          -39.41108333333333
        ]
      },
      "properties": {
        "id": "645843296",
        "type": "VRP",
        "designator": "VN132",
        "name": "Ohakune",
        "remark": "VRP"
      }
    },
    {
      "type": "Feature",
      "geometry": {
        "type": "Point",
        "coordinates": [
          174.64544444444445,
          -41.23855555555556
        ]
      },
      "properties": {
        "id": "645843299",
        "type": "VRP",
        "designator": "VN133",
        "name": "Ohau Point",
        "remark": "VRP"
      }
    },
    {
      "type": "Feature",
      "geometry": {
        "type": "Point",
        "coordinates": [
          175.3075,
          -37.91936111111111
        ]
      },
      "properties": {
        "id": "645843302",
        "type": "VRP",
        "designator": "VN134",
        "name": "Ohaupo",
        "remark": "VRP"
      }
    },
    {
      "type": "Feature",
      "geometry": {
        "type": "Point",
        "coordinates": [
          174.74380555555555,
          -36.66072222222222
        ]
      },
      "properties": {
        "id": "645843305",
        "type": "VRP",
        "designator": "VN135",
        "name": "Okura River Mouth",
        "remark": "VRP"
      }
    },
    {
      "type": "Feature",
      "geometry": {
        "type": "Point",
        "coordinates": [
          176.0535277777778,
          -37.632111111111115
        ]
      },
      "properties": {
        "id": "645843308",
        "type": "VRP",
        "designator": "VN136",
        "name": "Omokoroa",
        "remark": "VRP"
      }
    },
    {
      "type": "Feature",
      "geometry": {
        "type": "Point",
        "coordinates": [
          174.78308333333334,
          -36.900083333333335
        ]
      },
      "properties": {
        "id": "645843311",
        "type": "VRP",
        "designator": "VN137",
        "name": "One Tree Hill",
        "remark": "VRP"
      }
    },
    {
      "type": "Feature",
      "geometry": {
        "type": "Point",
        "coordinates": [
          174.45374999999999,
          -35.81819444444445
        ]
      },
      "properties": {
        "id": "645843314",
        "type": "VRP",
        "designator": "VN138",
        "name": "One Tree Point",
        "remark": "VRP"
      }
    },
    {
      "type": "Feature",
      "geometry": {
        "type": "Point",
        "coordinates": [
          174.69711111111113,
          -36.60008333333334
        ]
      },
      "properties": {
        "id": "645843317",
        "type": "VRP",
        "designator": "VN139",
        "name": "Orewa",
        "remark": "VRP"
      }
    },
    {
      "type": "Feature",
      "geometry": {
        "type": "Point",
        "coordinates": [
          177.92216666666667,
          -38.554916666666664
        ]
      },
      "properties": {
        "id": "645843320",
        "type": "VRP",
        "designator": "VN140",
        "name": "Ormond",
        "remark": "VRP"
      }
    },
    {
      "type": "Feature",
      "geometry": {
        "type": "Point",
        "coordinates": [
          175.11630555555556,
          -40.73952777777778
        ]
      },
      "properties": {
        "id": "645843323",
        "type": "VRP",
        "designator": "VN141",
        "name": "Otaki Beach",
        "remark": "VRP"
      }
    },
    {
      "type": "Feature",
      "geometry": {
        "type": "Point",
        "coordinates": [
          176.23155555555556,
          -37.695055555555555
        ]
      },
      "properties": {
        "id": "645843326",
        "type": "VRP",
        "designator": "VN142",
        "name": "Oxidation Ponds",
        "remark": "VRP"
      }
    },
    {
      "type": "Feature",
      "geometry": {
        "type": "Point",
        "coordinates": [
          175.67,
          -37.378
        ]
      },
      "properties": {
        "id": "645843329",
        "type": "VRP",
        "designator": "VN143",
        "name": "Paeroa",
        "remark": "VRP"
      }
    },
    {
      "type": "Feature",
      "geometry": {
        "type": "Point",
        "coordinates": [
          175.84080555555556,
          -40.45341666666667
        ]
      },
      "properties": {
        "id": "645843332",
        "type": "VRP",
        "designator": "VN144",
        "name": "Pahiatua",
        "remark": "VRP"
      }
    },
    {
      "type": "Feature",
      "geometry": {
        "type": "Point",
        "coordinates": [
          174.86936111111112,
          -36.911249999999995
        ]
      },
      "properties": {
        "id": "645843335",
        "type": "VRP",
        "designator": "VN145",
        "name": "Pakuranga Town",
        "remark": "VRP"
      }
    },
    {
      "type": "Feature",
      "geometry": {
        "type": "Point",
        "coordinates": [
          174.85833333333332,
          -36.91225
        ]
      },
      "properties": {
        "id": "645843338",
        "type": "VRP",
        "designator": "VN146",
        "name": "Panmure",
        "remark": "VRP"
      }
    },
    {
      "type": "Feature",
      "geometry": {
        "type": "Point",
        "coordinates": [
          174.9471388888889,
          -37.067638888888894
        ]
      },
      "properties": {
        "id": "645843341",
        "type": "VRP",
        "designator": "VN147",
        "name": "Papakura",
        "remark": "VRP"
      }
    },
    {
      "type": "Feature",
      "geometry": {
        "type": "Point",
        "coordinates": [
          175.5485,
          -39.677138888888884
        ]
      },
      "properties": {
        "id": "645843344",
        "type": "VRP",
        "designator": "VN148",
        "name": "Papanui Junction",
        "remark": "VRP"
      }
    },
    {
      "type": "Feature",
      "geometry": {
        "type": "Point",
        "coordinates": [
          174.8698611111111,
          -41.10330555555556
        ]
      },
      "properties": {
        "id": "645843347",
        "type": "VRP",
        "designator": "VN149",
        "name": "Paremata",
        "remark": "VRP"
      }
    },
    {
      "type": "Feature",
      "geometry": {
        "type": "Point",
        "coordinates": [
          176.60463888888887,
          -39.346583333333335
        ]
      },
      "properties": {
        "id": "645843350",
        "type": "VRP",
        "designator": "VN150",
        "name": "Patoka",
        "remark": "VRP"
      }
    },
    {
      "type": "Feature",
      "geometry": {
        "type": "Point",
        "coordinates": [
          177.89133333333334,
          -38.626305555555554
        ]
      },
      "properties": {
        "id": "645843353",
        "type": "VRP",
        "designator": "VN151",
        "name": "Patutahi",
        "remark": "VRP"
      }
    },
    {
      "type": "Feature",
      "geometry": {
        "type": "Point",
        "coordinates": [
          174.8487777777778,
          -41.35966666666667
        ]
      },
      "properties": {
        "id": "645843356",
        "type": "VRP",
        "designator": "VN152",
        "name": "Pencarrow",
        "remark": "VRP"
      }
    },
    {
      "type": "Feature",
      "geometry": {
        "type": "Point",
        "coordinates": [
          174.87044444444444,
          -41.228833333333334
        ]
      },
      "properties": {
        "id": "645843359",
        "type": "VRP",
        "designator": "VN153",
        "name": "Petone Wharf",
        "remark": "VRP"
      }
    },
    {
      "type": "Feature",
      "geometry": {
        "type": "Point",
        "coordinates": [
          175.47405555555557,
          -40.88252777777778
        ]
      },
      "properties": {
        "id": "645843362",
        "type": "VRP",
        "designator": "VN154",
        "name": "Pinnacle",
        "remark": "VRP"
      }
    },
    {
      "type": "Feature",
      "geometry": {
        "type": "Point",
        "coordinates": [
          174.73905555555555,
          -41.17327777777778
        ]
      },
      "properties": {
        "id": "645843365",
        "type": "VRP",
        "designator": "VN155",
        "name": "Pipinui Point",
        "remark": "VRP"
      }
    },
    {
      "type": "Feature",
      "geometry": {
        "type": "Point",
        "coordinates": [
          175.2067222222222,
          -37.99077777777778
        ]
      },
      "properties": {
        "id": "645843368",
        "type": "VRP",
        "designator": "VN156",
        "name": "Pirongia",
        "remark": "VRP"
      }
    },
    {
      "type": "Feature",
      "geometry": {
        "type": "Point",
        "coordinates": [
          174.70352777777777,
          -36.85111111111111
        ]
      },
      "properties": {
        "id": "645843371",
        "type": "VRP",
        "designator": "VN157",
        "name": "Point Chevalier",
        "remark": "VRP"
      }
    },
    {
      "type": "Feature",
      "geometry": {
        "type": "Point",
        "coordinates": [
          174.83655555555558,
          -41.29577777777778
        ]
      },
      "properties": {
        "id": "645843374",
        "type": "VRP",
        "designator": "VN158",
        "name": "Point Gordon",
        "remark": "VRP"
      }
    },
    {
      "type": "Feature",
      "geometry": {
        "type": "Point",
        "coordinates": [
          174.8996111111111,
          -41.25633333333333
        ]
      },
      "properties": {
        "id": "645843377",
        "type": "VRP",
        "designator": "VN159",
        "name": "Point Howard",
        "remark": "VRP"
      }
    },
    {
      "type": "Feature",
      "geometry": {
        "type": "Point",
        "coordinates": [
          174.33277777777778,
          -35.80638888888888
        ]
      },
      "properties": {
        "id": "645843380",
        "type": "VRP",
        "designator": "VN160",
        "name": "Portland",
        "remark": "VRP"
      }
    },
    {
      "type": "Feature",
      "geometry": {
        "type": "Point",
        "coordinates": [
          176.35641666666666,
          -38.136944444444445
        ]
      },
      "properties": {
        "id": "645843383",
        "type": "VRP",
        "designator": "VN161",
        "name": "Pukepoto",
        "remark": "VRP"
      }
    },
    {
      "type": "Feature",
      "geometry": {
        "type": "Point",
        "coordinates": [
          174.88655555555556,
          -41.028277777777774
        ]
      },
      "properties": {
        "id": "645843386",
        "type": "VRP",
        "designator": "VN162",
        "name": "Pukerua Bay",
        "remark": "VRP"
      }
    },
    {
      "type": "Feature",
      "geometry": {
        "type": "Point",
        "coordinates": [
          176.78825,
          -39.51186111111111
        ]
      },
      "properties": {
        "id": "645843389",
        "type": "VRP",
        "designator": "VN163",
        "name": "Puketapu",
        "remark": "VRP"
      }
    },
    {
      "type": "Feature",
      "geometry": {
        "type": "Point",
        "coordinates": [
          173.98444444444442,
          -35.30083333333333
        ]
      },
      "properties": {
        "id": "645843392",
        "type": "VRP",
        "designator": "VN164",
        "name": "Puketona Quarry",
        "remark": "VRP"
      }
    },
    {
      "type": "Feature",
      "geometry": {
        "type": "Point",
        "coordinates": [
          174.74155555555555,
          -36.96402777777778
        ]
      },
      "properties": {
        "id": "645843395",
        "type": "VRP",
        "designator": "VN165",
        "name": "Puketutu Island",
        "remark": "VRP"
      }
    },
    {
      "type": "Feature",
      "geometry": {
        "type": "Point",
        "coordinates": [
          176.12213888888888,
          -37.73211111111112
        ]
      },
      "properties": {
        "id": "645843398",
        "type": "VRP",
        "designator": "VN166",
        "name": "Racecourse",
        "remark": "VRP"
      }
    },
    {
      "type": "Feature",
      "geometry": {
        "type": "Point",
        "coordinates": [
          175.2819166666667,
          -39.42772222222222
        ]
      },
      "properties": {
        "id": "645843401",
        "type": "VRP",
        "designator": "VN167",
        "name": "Raetihi",
        "remark": "VRP"
      }
    },
    {
      "type": "Feature",
      "geometry": {
        "type": "Point",
        "coordinates": [
          176.01686111111113,
          -38.73822222222222
        ]
      },
      "properties": {
        "id": "645843407",
        "type": "VRP",
        "designator": "VN169",
        "name": "Rangatira Point",
        "remark": "VRP"
      }
    },
    {
      "type": "Feature",
      "geometry": {
        "type": "Point",
        "coordinates": [
          175.44486111111112,
          -40.42258333333333
        ]
      },
      "properties": {
        "id": "645843410",
        "type": "VRP",
        "designator": "VN170",
        "name": "Rangiotu",
        "remark": "VRP"
      }
    },
    {
      "type": "Feature",
      "geometry": {
        "type": "Point",
        "coordinates": [
          175.21905555555557,
          -40.19547222222222
        ]
      },
      "properties": {
        "id": "645843413",
        "type": "VRP",
        "designator": "VN171",
        "name": "Raumai",
        "remark": "VRP"
      }
    },
    {
      "type": "Feature",
      "geometry": {
        "type": "Point",
        "coordinates": [
          174.98250000000002,
          -37.06722222222223
        ]
      },
      "properties": {
        "id": "645843416",
        "type": "VRP",
        "designator": "VN172",
        "name": "Red Hill",
        "remark": "VRP"
      }
    },
    {
      "type": "Feature",
      "geometry": {
        "type": "Point",
        "coordinates": [
          177.03647222222222,
          -39.21211111111111
        ]
      },
      "properties": {
        "id": "645843419",
        "type": "VRP",
        "designator": "VN173",
        "name": "Ridgemount Bluff",
        "remark": "VRP"
      }
    },
    {
      "type": "Feature",
      "geometry": {
        "type": "Point",
        "coordinates": [
          176.05491666666668,
          -37.777388888888886
        ]
      },
      "properties": {
        "id": "645843425",
        "type": "VRP",
        "designator": "VN175",
        "name": "Ruahihi",
        "remark": "VRP"
      }
    },
    {
      "type": "Feature",
      "geometry": {
        "type": "Point",
        "coordinates": [
          175.30575000000002,
          -37.852111111111114
        ]
      },
      "properties": {
        "id": "645843428",
        "type": "VRP",
        "designator": "VN176",
        "name": "Rukuhia",
        "remark": "VRP"
      }
    },
    {
      "type": "Feature",
      "geometry": {
        "type": "Point",
        "coordinates": [
          176.12741666666668,
          -38.73572222222222
        ]
      },
      "properties": {
        "id": "645843431",
        "type": "VRP",
        "designator": "VN177",
        "name": "Sandfly Hill",
        "remark": "VRP"
      }
    },
    {
      "type": "Feature",
      "geometry": {
        "type": "Point",
        "coordinates": [
          174.7798888888889,
          -37.09458333333333
        ]
      },
      "properties": {
        "id": "645843434",
        "type": "VRP",
        "designator": "VN178",
        "name": "Seagrove",
        "remark": "VRP"
      }
    },
    {
      "type": "Feature",
      "geometry": {
        "type": "Point",
        "coordinates": [
          176.92325,
          -39.47741666666667
        ]
      },
      "properties": {
        "id": "645843437",
        "type": "VRP",
        "designator": "VN179",
        "name": "Seaport",
        "remark": "VRP"
      }
    },
    {
      "type": "Feature",
      "geometry": {
        "type": "Point",
        "coordinates": [
          175.28913888888889,
          -37.77597222222222
        ]
      },
      "properties": {
        "id": "645843440",
        "type": "VRP",
        "designator": "VN180",
        "name": "Showgrounds",
        "remark": "VRP"
      }
    },
    {
      "type": "Feature",
      "geometry": {
        "type": "Point",
        "coordinates": [
          174.71599999999998,
          -41.36216666666667
        ]
      },
      "properties": {
        "id": "645843443",
        "type": "VRP",
        "designator": "VN181",
        "name": "Sinclair Head",
        "remark": "VRP"
      }
    },
    {
      "type": "Feature",
      "geometry": {
        "type": "Point",
        "coordinates": [
          174.86616666666666,
          -41.259083333333336
        ]
      },
      "properties": {
        "id": "645843446",
        "type": "VRP",
        "designator": "VN182",
        "name": "Somes",
        "remark": "VRP"
      }
    },
    {
      "type": "Feature",
      "geometry": {
        "type": "Point",
        "coordinates": [
          176.3073888888889,
          -37.714444444444446
        ]
      },
      "properties": {
        "id": "645843449",
        "type": "VRP",
        "designator": "VN183",
        "name": "Sports Ground",
        "remark": "VRP"
      }
    },
    {
      "type": "Feature",
      "geometry": {
        "type": "Point",
        "coordinates": [
          174.86408333333333,
          -36.84319444444445
        ]
      },
      "properties": {
        "id": "645843452",
        "type": "VRP",
        "designator": "VN184",
        "name": "St Heliers",
        "remark": "VRP"
      }
    },
    {
      "type": "Feature",
      "geometry": {
        "type": "Point",
        "coordinates": [
          174.0273888888889,
          -39.04880555555555
        ]
      },
      "properties": {
        "id": "645843455",
        "type": "VRP",
        "designator": "VN185",
        "name": "Sugar Loaf Island",
        "remark": "VRP"
      }
    },
    {
      "type": "Feature",
      "geometry": {
        "type": "Point",
        "coordinates": [
          175.7985,
          -39.67666666666666
        ]
      },
      "properties": {
        "id": "645843458",
        "type": "VRP",
        "designator": "VN186",
        "name": "Taihape",
        "remark": "VRP"
      }
    },
    {
      "type": "Feature",
      "geometry": {
        "type": "Point",
        "coordinates": [
          174.79127777777776,
          -37.165416666666665
        ]
      },
      "properties": {
        "id": "645843461",
        "type": "VRP",
        "designator": "VN187",
        "name": "Taihiki River Estuary",
        "remark": "VRP"
      }
    },
    {
      "type": "Feature",
      "geometry": {
        "type": "Point",
        "coordinates": [
          175.24780555555554,
          -40.29613888888889
        ]
      },
      "properties": {
        "id": "645843464",
        "type": "VRP",
        "designator": "VN188",
        "name": "Tangimoana",
        "remark": "VRP"
      }
    },
    {
      "type": "Feature",
      "geometry": {
        "type": "Point",
        "coordinates": [
          175.5017777777778,
          -36.98291666666667
        ]
      },
      "properties": {
        "id": "645843467",
        "type": "VRP",
        "designator": "VN189",
        "name": "Tapu",
        "remark": "VRP"
      }
    },
    {
      "type": "Feature",
      "geometry": {
        "type": "Point",
        "coordinates": [
          175.55441666666667,
          -40.27902777777778
        ]
      },
      "properties": {
        "id": "645843473",
        "type": "VRP",
        "designator": "VN191",
        "name": "Te Arakura",
        "remark": "VRP"
      }
    },
    {
      "type": "Feature",
      "geometry": {
        "type": "Point",
        "coordinates": [
          174.64933333333332,
          -36.82486111111111
        ]
      },
      "properties": {
        "id": "645843476",
        "type": "VRP",
        "designator": "VN192",
        "name": "Te Atatu",
        "remark": "VRP"
      }
    },
    {
      "type": "Feature",
      "geometry": {
        "type": "Point",
        "coordinates": [
          175.3258888888889,
          -38.01002777777778
        ]
      },
      "properties": {
        "id": "645843479",
        "type": "VRP",
        "designator": "VN193",
        "name": "Te Awamutu",
        "remark": "VRP"
      }
    },
    {
      "type": "Feature",
      "geometry": {
        "type": "Point",
        "coordinates": [
          177.87516666666667,
          -38.47127777777778
        ]
      },
      "properties": {
        "id": "645843482",
        "type": "VRP",
        "designator": "VN194",
        "name": "Te Karaka",
        "remark": "VRP"
      }
    },
    {
      "type": "Feature",
      "geometry": {
        "type": "Point",
        "coordinates": [
          175.1292777777778,
          -41.09338888888889
        ]
      },
      "properties": {
        "id": "645843485",
        "type": "VRP",
        "designator": "VN195",
        "name": "Te Marua",
        "remark": "VRP"
      }
    },
    {
      "type": "Feature",
      "geometry": {
        "type": "Point",
        "coordinates": [
          176.68241666666665,
          -39.250194444444446
        ]
      },
      "properties": {
        "id": "645843488",
        "type": "VRP",
        "designator": "VN196",
        "name": "Te Pohue",
        "remark": "VRP"
      }
    },
    {
      "type": "Feature",
      "geometry": {
        "type": "Point",
        "coordinates": [
          175.84255555555558,
          -37.87261111111111
        ]
      },
      "properties": {
        "id": "645843491",
        "type": "VRP",
        "designator": "VN197",
        "name": "Te Poi",
        "remark": "VRP"
      }
    },
    {
      "type": "Feature",
      "geometry": {
        "type": "Point",
        "coordinates": [
          176.3168611111111,
          -37.779333333333334
        ]
      },
      "properties": {
        "id": "645843494",
        "type": "VRP",
        "designator": "VN198",
        "name": "Te Puke",
        "remark": "VRP"
      }
    },
    {
      "type": "Feature",
      "geometry": {
        "type": "Point",
        "coordinates": [
          176.0728611111111,
          -37.69586111111111
        ]
      },
      "properties": {
        "id": "645843497",
        "type": "VRP",
        "designator": "VN199",
        "name": "Te Puna",
        "remark": "VRP"
      }
    },
    {
      "type": "Feature",
      "geometry": {
        "type": "Point",
        "coordinates": [
          175.24408333333332,
          -37.76488888888889
        ]
      },
      "properties": {
        "id": "645843500",
        "type": "VRP",
        "designator": "VN200",
        "name": "Te Rapa",
        "remark": "VRP"
      }
    },
    {
      "type": "Feature",
      "geometry": {
        "type": "Point",
        "coordinates": [
          175.22666666666666,
          -37.82119444444445
        ]
      },
      "properties": {
        "id": "645843503",
        "type": "VRP",
        "designator": "VN201",
        "name": "Temple View",
        "remark": "VRP"
      }
    },
    {
      "type": "Feature",
      "geometry": {
        "type": "Point",
        "coordinates": [
          174.61822222222224,
          -41.2955
        ]
      },
      "properties": {
        "id": "645843506",
        "type": "VRP",
        "designator": "VN202",
        "name": "Terawhiti",
        "remark": "VRP"
      }
    },
    {
      "type": "Feature",
      "geometry": {
        "type": "Point",
        "coordinates": [
          177.7757777777778,
          -38.86547222222222
        ]
      },
      "properties": {
        "id": "645843509",
        "type": "VRP",
        "designator": "VN203",
        "name": "The Dams",
        "remark": "VRP"
      }
    },
    {
      "type": "Feature",
      "geometry": {
        "type": "Point",
        "coordinates": [
          177.87383333333335,
          -38.59825
        ]
      },
      "properties": {
        "id": "645843512",
        "type": "VRP",
        "designator": "VN204",
        "name": "The Lake",
        "remark": "VRP"
      }
    },
    {
      "type": "Feature",
      "geometry": {
        "type": "Point",
        "coordinates": [
          177.95383333333334,
          -38.668527777777776
        ]
      },
      "properties": {
        "id": "645843515",
        "type": "VRP",
        "designator": "VN205",
        "name": "The Mill",
        "remark": "VRP"
      }
    },
    {
      "type": "Feature",
      "geometry": {
        "type": "Point",
        "coordinates": [
          175.68333333333334,
          -40.99305555555556
        ]
      },
      "properties": {
        "id": "645843518",
        "type": "VRP",
        "designator": "VN206",
        "name": "The Ponds",
        "remark": "VRP"
      }
    },
    {
      "type": "Feature",
      "geometry": {
        "type": "Point",
        "coordinates": [
          174.2798888888889,
          -39.03380555555555
        ]
      },
      "properties": {
        "id": "645843524",
        "type": "VRP",
        "designator": "VN208",
        "name": "Tikorangi",
        "remark": "VRP"
      }
    },
    {
      "type": "Feature",
      "geometry": {
        "type": "Point",
        "coordinates": [
          175.60269444444444,
          -40.96747222222223
        ]
      },
      "properties": {
        "id": "645843527",
        "type": "VRP",
        "designator": "VN209",
        "name": "Timber Mill",
        "remark": "VRP"
      }
    },
    {
      "type": "Feature",
      "geometry": {
        "type": "Point",
        "coordinates": [
          175.76,
          -37.980000000000004
        ]
      },
      "properties": {
        "id": "645843530",
        "type": "VRP",
        "designator": "VN210",
        "name": "Tirau",
        "remark": "VRP"
      }
    },
    {
      "type": "Feature",
      "geometry": {
        "type": "Point",
        "coordinates": [
          175.50977777777777,
          -40.474722222222226
        ]
      },
      "properties": {
        "id": "645843533",
        "type": "VRP",
        "designator": "VN211",
        "name": "Tokomaru",
        "remark": "VRP"
      }
    },
    {
      "type": "Feature",
      "geometry": {
        "type": "Point",
        "coordinates": [
          175.8918611111111,
          -38.236555555555555
        ]
      },
      "properties": {
        "id": "645843536",
        "type": "VRP",
        "designator": "VN212",
        "name": "Tokoroa",
        "remark": "VRP"
      }
    },
    {
      "type": "Feature",
      "geometry": {
        "type": "Point",
        "coordinates": [
          175.84547222222224,
          -37.69905555555555
        ]
      },
      "properties": {
        "id": "645843539",
        "type": "VRP",
        "designator": "VN213",
        "name": "Tunnel",
        "remark": "VRP"
      }
    },
    {
      "type": "Feature",
      "geometry": {
        "type": "Point",
        "coordinates": [
          174.91766666666666,
          -41.43827777777778
        ]
      },
      "properties": {
        "id": "645843542",
        "type": "VRP",
        "designator": "VN214",
        "name": "Turakirae",
        "remark": "VRP"
      }
    },
    {
      "type": "Feature",
      "geometry": {
        "type": "Point",
        "coordinates": [
          175.61847222222224,
          -40.385333333333335
        ]
      },
      "properties": {
        "id": "645843545",
        "type": "VRP",
        "designator": "VN215",
        "name": "University",
        "remark": "VRP"
      }
    },
    {
      "type": "Feature",
      "geometry": {
        "type": "Point",
        "coordinates": [
          175.62158333333335,
          -39.18575
        ]
      },
      "properties": {
        "id": "645843548",
        "type": "VRP",
        "designator": "VN216",
        "name": "Upper Tama Lake",
        "remark": "VRP"
      }
    },
    {
      "type": "Feature",
      "geometry": {
        "type": "Point",
        "coordinates": [
          174.39016666666666,
          -38.997416666666666
        ]
      },
      "properties": {
        "id": "645843551",
        "type": "VRP",
        "designator": "VN217",
        "name": "Urenui",
        "remark": "VRP"
      }
    },
    {
      "type": "Feature",
      "geometry": {
        "type": "Point",
        "coordinates": [
          178.04494444444444,
          -38.5085
        ]
      },
      "properties": {
        "id": "645843554",
        "type": "VRP",
        "designator": "VN218",
        "name": "Waimata",
        "remark": "VRP"
      }
    },
    {
      "type": "Feature",
      "geometry": {
        "type": "Point",
        "coordinates": [
          174.4921111111111,
          -36.76291666666667
        ]
      },
      "properties": {
        "id": "645843557",
        "type": "VRP",
        "designator": "VN219",
        "name": "Waimauku",
        "remark": "VRP"
      }
    },
    {
      "type": "Feature",
      "geometry": {
        "type": "Point",
        "coordinates": [
          178.07188888888888,
          -38.68825
        ]
      },
      "properties": {
        "id": "645843560",
        "type": "VRP",
        "designator": "VN220",
        "name": "Wainui",
        "remark": "VRP"
      }
    },
    {
      "type": "Feature",
      "geometry": {
        "type": "Point",
        "coordinates": [
          176.26691666666667,
          -38.1795
        ]
      },
      "properties": {
        "id": "645843563",
        "type": "VRP",
        "designator": "VN221",
        "name": "Waipa Sawmill",
        "remark": "VRP"
      }
    },
    {
      "type": "Feature",
      "geometry": {
        "type": "Point",
        "coordinates": [
          177.94161111111111,
          -38.71352777777778
        ]
      },
      "properties": {
        "id": "645843566",
        "type": "VRP",
        "designator": "VN222",
        "name": "Waipaoa River Mouth",
        "remark": "VRP"
      }
    },
    {
      "type": "Feature",
      "geometry": {
        "type": "Point",
        "coordinates": [
          176.97658333333334,
          -39.301027777777776
        ]
      },
      "properties": {
        "id": "645843569",
        "type": "VRP",
        "designator": "VN223",
        "name": "Waipatiki Beach",
        "remark": "VRP"
      }
    },
    {
      "type": "Feature",
      "geometry": {
        "type": "Point",
        "coordinates": [
          176.1054722222222,
          -38.626555555555555
        ]
      },
      "properties": {
        "id": "645843572",
        "type": "VRP",
        "designator": "VN224",
        "name": "Wairakei",
        "remark": "VRP"
      }
    },
    {
      "type": "Feature",
      "geometry": {
        "type": "Point",
        "coordinates": [
          176.26047222222223,
          -38.889361111111114
        ]
      },
      "properties": {
        "id": "645843575",
        "type": "VRP",
        "designator": "VN225",
        "name": "Wairango",
        "remark": "VRP"
      }
    },
    {
      "type": "Feature",
      "geometry": {
        "type": "Point",
        "coordinates": [
          175.075,
          -36.95416666666667
        ]
      },
      "properties": {
        "id": "645843578",
        "type": "VRP",
        "designator": "VN226",
        "name": "Wairoa River Mouth",
        "remark": "VRP"
      }
    },
    {
      "type": "Feature",
      "geometry": {
        "type": "Point",
        "coordinates": [
          174.5298888888889,
          -36.899027777777775
        ]
      },
      "properties": {
        "id": "645843581",
        "type": "VRP",
        "designator": "VN227",
        "name": "Waitakere",
        "remark": "VRP"
      }
    },
    {
      "type": "Feature",
      "geometry": {
        "type": "Point",
        "coordinates": [
          175.63172222222224,
          -37.59852777777778
        ]
      },
      "properties": {
        "id": "645843584",
        "type": "VRP",
        "designator": "VN228",
        "name": "Waitoa",
        "remark": "VRP"
      }
    },
    {
      "type": "Feature",
      "geometry": {
        "type": "Point",
        "coordinates": [
          174.87155555555557,
          -41.29383333333333
        ]
      },
      "properties": {
        "id": "645843587",
        "type": "VRP",
        "designator": "VN229",
        "name": "Ward Island",
        "remark": "VRP"
      }
    },
    {
      "type": "Feature",
      "geometry": {
        "type": "Point",
        "coordinates": [
          174.66369444444445,
          -36.40058333333333
        ]
      },
      "properties": {
        "id": "645843590",
        "type": "VRP",
        "designator": "VN230",
        "name": "Warkworth",
        "remark": "VRP"
      }
    },
    {
      "type": "Feature",
      "geometry": {
        "type": "Point",
        "coordinates": [
          175.02297222222222,
          -37.04291666666666
        ]
      },
      "properties": {
        "id": "645843593",
        "type": "VRP",
        "designator": "VN231",
        "name": "Waterworks",
        "remark": "VRP"
      }
    },
    {
      "type": "Feature",
      "geometry": {
        "type": "Point",
        "coordinates": [
          176.19075,
          -37.724333333333334
        ]
      },
      "properties": {
        "id": "645843596",
        "type": "VRP",
        "designator": "VN232",
        "name": "Welcome Bay",
        "remark": "VRP"
      }
    },
    {
      "type": "Feature",
      "geometry": {
        "type": "Point",
        "coordinates": [
          174.52322222222224,
          -36.29608333333333
        ]
      },
      "properties": {
        "id": "645843599",
        "type": "VRP",
        "designator": "VN233",
        "name": "Wellsford",
        "remark": "VRP"
      }
    },
    {
      "type": "Feature",
      "geometry": {
        "type": "Point",
        "coordinates": [
          174.8621388888889,
          -37.04847222222222
        ]
      },
      "properties": {
        "id": "645843602",
        "type": "VRP",
        "designator": "VN234",
        "name": "Weymouth",
        "remark": "VRP"
      }
    },
    {
      "type": "Feature",
      "geometry": {
        "type": "Point",
        "coordinates": [
          175.96491666666665,
          -38.688222222222215
        ]
      },
      "properties": {
        "id": "645843605",
        "type": "VRP",
        "designator": "VN235",
        "name": "Whakaipo Bay",
        "remark": "VRP"
      }
    },
    {
      "type": "Feature",
      "geometry": {
        "type": "Point",
        "coordinates": [
          175.5571388888889,
          -39.241305555555556
        ]
      },
      "properties": {
        "id": "645843608",
        "type": "VRP",
        "designator": "VN236",
        "name": "Whakapapa Skifield",
        "remark": "VRP"
      }
    },
    {
      "type": "Feature",
      "geometry": {
        "type": "Point",
        "coordinates": [
          175.53880555555554,
          -39.20075
        ]
      },
      "properties": {
        "id": "645843611",
        "type": "VRP",
        "designator": "VN237",
        "name": "Whakapapa Village",
        "remark": "VRP"
      }
    },
    {
      "type": "Feature",
      "geometry": {
        "type": "Point",
        "coordinates": [
          177.59883333333335,
          -38.83269444444445
        ]
      },
      "properties": {
        "id": "645843614",
        "type": "VRP",
        "designator": "VN238",
        "name": "Whakapunaki",
        "remark": "VRP"
      }
    },
    {
      "type": "Feature",
      "geometry": {
        "type": "Point",
        "coordinates": [
          175.09816666666669,
          -40.04002777777777
        ]
      },
      "properties": {
        "id": "645843617",
        "type": "VRP",
        "designator": "VN239",
        "name": "Whangaehu River Mouth",
        "remark": "VRP"
      }
    },
    {
      "type": "Feature",
      "geometry": {
        "type": "Point",
        "coordinates": [
          175.87519444444445,
          -37.21486111111111
        ]
      },
      "properties": {
        "id": "645843620",
        "type": "VRP",
        "designator": "VN240",
        "name": "Whangamata",
        "remark": "VRP"
      }
    },
    {
      "type": "Feature",
      "geometry": {
        "type": "Point",
        "coordinates": [
          176.0368611111111,
          -38.82269444444445
        ]
      },
      "properties": {
        "id": "645843623",
        "type": "VRP",
        "designator": "VN241",
        "name": "White Cliffs",
        "remark": "VRP"
      }
    },
    {
      "type": "Feature",
      "geometry": {
        "type": "Point",
        "coordinates": [
          174.96380555555555,
          -36.94541666666667
        ]
      },
      "properties": {
        "id": "645843626",
        "type": "VRP",
        "designator": "VN242",
        "name": "Whitford Town",
        "remark": "VRP"
      }
    },
    {
      "type": "Feature",
      "geometry": {
        "type": "Point",
        "coordinates": [
          174.74544444444444,
          -41.31077777777777
        ]
      },
      "properties": {
        "id": "645843629",
        "type": "VRP",
        "designator": "VN243",
        "name": "Windmill",
        "remark": "VRP"
      }
    },
    {
      "type": "Feature",
      "geometry": {
        "type": "Point",
        "coordinates": [
          175.86655555555555,
          -40.337
        ]
      },
      "properties": {
        "id": "645843632",
        "type": "VRP",
        "designator": "VN244",
        "name": "Woodville",
        "remark": "VRP"
      }
    },
    {
      "type": "Feature",
      "geometry": {
        "type": "Point",
        "coordinates": [
          175.12747222222222,
          -37.291666666666664
        ]
      },
      "properties": {
        "id": "101000831227774",
        "type": "VRP",
        "designator": "VN245",
        "name": "Cableway",
        "remark": "VRP"
      }
    },
    {
      "type": "Feature",
      "geometry": {
        "type": "Point",
        "coordinates": [
          175.03111111111113,
          -37.22416666666667
        ]
      },
      "properties": {
        "id": "101000831227777",
        "type": "VRP",
        "designator": "VN246",
        "name": "Green Shed",
        "remark": "VRP"
      }
    },
    {
      "type": "Feature",
      "geometry": {
        "type": "Point",
        "coordinates": [
          175.14705555555554,
          -37.19002777777777
        ]
      },
      "properties": {
        "id": "101000831227780",
        "type": "VRP",
        "designator": "VN247",
        "name": "Hotel Du Vin",
        "remark": "VRP"
      }
    },
    {
      "type": "Feature",
      "geometry": {
        "type": "Point",
        "coordinates": [
          175.1665277777778,
          -37.26861111111111
        ]
      },
      "properties": {
        "id": "101000831227783",
        "type": "VRP",
        "designator": "VN248",
        "name": "Quarry Lake",
        "remark": "VRP"
      }
    },
    {
      "type": "Feature",
      "geometry": {
        "type": "Point",
        "coordinates": [
          176.09280555555557,
          -38.89044444444444
        ]
      },
      "properties": {
        "id": "101000831227786",
        "type": "VRP",
        "designator": "VN249",
        "name": "Southern Dam",
        "remark": "VRP"
      }
    },
    {
      "type": "Feature",
      "geometry": {
        "type": "Point",
        "coordinates": [
          177.95841666666666,
          -38.59561111111111
        ]
      },
      "properties": {
        "id": "101000831227867",
        "type": "VRP",
        "designator": "VN250",
        "name": "Greys Bush",
        "remark": "VRP"
      }
    },
    {
      "type": "Feature",
      "geometry": {
        "type": "Point",
        "coordinates": [
          177.898,
          -38.52238888888889
        ]
      },
      "properties": {
        "id": "101000831227870",
        "type": "VRP",
        "designator": "VN251",
        "name": "The Old Works",
        "remark": "VRP"
      }
    },
    {
      "type": "Feature",
      "geometry": {
        "type": "Point",
        "coordinates": [
          177.91525000000001,
          -38.652499999999996
        ]
      },
      "properties": {
        "id": "101000831227873",
        "type": "VRP",
        "designator": "VN252",
        "name": "The Roundabout",
        "remark": "VRP"
      }
    },
    {
      "type": "Feature",
      "geometry": {
        "type": "Point",
        "coordinates": [
          177.98833333333332,
          -38.596138888888895
        ]
      },
      "properties": {
        "id": "101000831227876",
        "type": "VRP",
        "designator": "VN253",
        "name": "The Trig",
        "remark": "VRP"
      }
    },
    {
      "type": "Feature",
      "geometry": {
        "type": "Point",
        "coordinates": [
          174.14230555555554,
          -39.03697222222222
        ]
      },
      "properties": {
        "id": "1351577769",
        "type": "VRP",
        "designator": "VN254",
        "name": "Bell Block Overpass",
        "remark": "VRP"
      }
    },
    {
      "type": "Feature",
      "geometry": {
        "type": "Point",
        "coordinates": [
          174.14505555555556,
          -39.14561111111111
        ]
      },
      "properties": {
        "id": "1351577772",
        "type": "VRP",
        "designator": "VN255",
        "name": "Egmont Village",
        "remark": "VRP"
      }
    },
    {
      "type": "Feature",
      "geometry": {
        "type": "Point",
        "coordinates": [
          174.24902777777777,
          -39.027
        ]
      },
      "properties": {
        "id": "1351577775",
        "type": "VRP",
        "designator": "VN256",
        "name": "Waitara Valley Plant",
        "remark": "VRP"
      }
    },
    {
      "type": "Feature",
      "geometry": {
        "type": "Point",
        "coordinates": [
          176.94452777777778,
          -39.604083333333335
        ]
      },
      "properties": {
        "id": "1385260301",
        "type": "VRP",
        "designator": "VN257",
        "name": "Haumoana",
        "remark": "VRP"
      }
    },
    {
      "type": "Feature",
      "geometry": {
        "type": "Point",
        "coordinates": [
          176.83916666666667,
          -39.49283333333334
        ]
      },
      "properties": {
        "id": "1385260304",
        "type": "VRP",
        "designator": "VN258",
        "name": "Poraiti",
        "remark": "VRP"
      }
    },
    {
      "type": "Feature",
      "geometry": {
        "type": "Point",
        "coordinates": [
          176.7178888888889,
          -39.439166666666665
        ]
      },
      "properties": {
        "id": "1385260308",
        "type": "VRP",
        "designator": "VN259",
        "name": "Rissington",
        "remark": "VRP"
      }
    },
    {
      "type": "Feature",
      "geometry": {
        "type": "Point",
        "coordinates": [
          176.89297222222223,
          -39.22413888888889
        ]
      },
      "properties": {
        "id": "1385260313",
        "type": "VRP",
        "designator": "VN260",
        "name": "Tutira",
        "remark": "VRP"
      }
    },
    {
      "type": "Feature",
      "geometry": {
        "type": "Point",
        "coordinates": [
          176.85755555555556,
          -39.55022222222222
        ]
      },
      "properties": {
        "id": "1385260322",
        "type": "VRP",
        "designator": "VN261",
        "name": "Waiohiki",
        "remark": "VRP"
      }
    },
    {
      "type": "Feature",
      "geometry": {
        "type": "Point",
        "coordinates": [
          176.8878611111111,
          -39.377250000000004
        ]
      },
      "properties": {
        "id": "1385260359",
        "type": "VRP",
        "designator": "VN262",
        "name": "Whirinaki",
        "remark": "VRP"
      }
    },
    {
      "type": "Feature",
      "geometry": {
        "type": "Point",
        "coordinates": [
          175.70222222222222,
          -40.270833333333336
        ]
      },
      "properties": {
        "id": "101002581014897",
        "type": "VRP",
        "designator": "VN263",
        "name": "Hiwinui",
        "remark": "VRP"
      }
    },
    {
      "type": "Feature",
      "geometry": {
        "type": "Point",
        "coordinates": [
          175.12563333333335,
          -36.99431666666667
        ]
      },
      "properties": {
        "id": "101002623941677",
        "type": "VRP",
        "designator": "VN264",
        "name": "Ness Valley",
        "remark": "VRP"
      }
    },
    {
      "type": "Feature",
      "geometry": {
        "type": "Point",
        "coordinates": [
          175.27375555555557,
          -37.798494444444444
        ]
      },
      "properties": {
        "id": "101003108815350",
        "type": "VRP",
        "designator": "VN265",
        "name": "Hamilton Lake",
        "remark": "VRP"
      }
    },
    {
      "type": "Feature",
      "geometry": {
        "type": "Point",
        "coordinates": [
          175.19574722222222,
          -37.698655555555554
        ]
      },
      "properties": {
        "id": "101003108815353",
        "type": "VRP",
        "designator": "VN266",
        "name": "Horotiu",
        "remark": "VRP"
      }
    },
    {
      "type": "Feature",
      "geometry": {
        "type": "Point",
        "coordinates": [
          175.20563055555556,
          -37.8972
        ]
      },
      "properties": {
        "id": "101003108815356",
        "type": "VRP",
        "designator": "VN267",
        "name": "Ngahinapouri",
        "remark": "VRP"
      }
    },
    {
      "type": "Feature",
      "geometry": {
        "type": "Point",
        "coordinates": [
          175.48496944444443,
          -37.77625555555556
        ]
      },
      "properties": {
        "id": "101003108842079",
        "type": "VRP",
        "designator": "VN268",
        "name": "Scotsmans Valley",
        "remark": "VRP"
      }
    },
    {
      "type": "Feature",
      "geometry": {
        "type": "Point",
        "coordinates": [
          175.43207222222222,
          -37.88890277777778
        ]
      },
      "properties": {
        "id": "101003108842082",
        "type": "VRP",
        "designator": "VN269",
        "name": "St Peters School",
        "remark": "VRP"
      }
    },
    {
      "type": "Feature",
      "geometry": {
        "type": "Point",
        "coordinates": [
          174.82814166666665,
          -37.036811111111106
        ]
      },
      "properties": {
        "id": "400000255348245",
        "type": "VRP",
        "designator": "VN270",
        "name": "Lpg Terminal",
        "remark": "VRP"
      }
    },
    {
      "type": "Feature",
      "geometry": {
        "type": "Point",
        "coordinates": [
          176.4886111111111,
          -38.038888888888884
        ]
      },
      "properties": {
        "id": "800000967277125",
        "type": "VRP",
        "designator": "VN271",
        "name": "Hinehopu",
        "remark": "VRP"
      }
    },
    {
      "type": "Feature",
      "geometry": {
        "type": "Point",
        "coordinates": [
          174.3411388888889,
          -35.16475
        ]
      },
      "properties": {
        "id": "400001467948932",
        "type": "VRP",
        "designator": "VN272",
        "name": "Hole In The Rock",
        "remark": "VRP"
      }
    },
    {
      "type": "Feature",
      "geometry": {
        "type": "Point",
        "coordinates": [
          174.11969444444446,
          -35.24188888888889
        ]
      },
      "properties": {
        "id": "400001467948935",
        "type": "VRP",
        "designator": "VN273",
        "name": "Tapeka Point",
        "remark": "VRP"
      }
    },
    {
      "type": "Feature",
      "geometry": {
        "type": "Point",
        "coordinates": [
          174.0925,
          -35.281
        ]
      },
      "properties": {
        "id": "400001467948938",
        "type": "VRP",
        "designator": "VN274",
        "name": "Paihia Waterfront",
        "remark": "VRP"
      }
    },
    {
      "type": "Feature",
      "geometry": {
        "type": "Point",
        "coordinates": [
          176.07233333333332,
          -37.57944444444445
        ]
      },
      "properties": {
        "id": "400001467994332",
        "type": "VRP",
        "designator": "VN275",
        "name": "Blue Gum Bay",
        "remark": "VRP"
      }
    },
    {
      "type": "Feature",
      "geometry": {
        "type": "Point",
        "coordinates": [
          176.28097222222223,
          -37.71416666666667
        ]
      },
      "properties": {
        "id": "400001467994335",
        "type": "VRP",
        "designator": "VN276",
        "name": "East Junction",
        "remark": "VRP"
      }
    },
    {
      "type": "Feature",
      "geometry": {
        "type": "Point",
        "coordinates": [
          176.202,
          -38.238083333333336
        ]
      },
      "properties": {
        "id": "400001467994338",
        "type": "VRP",
        "designator": "VN277",
        "name": "Haparangi",
        "remark": "VRP"
      }
    },
    {
      "type": "Feature",
      "geometry": {
        "type": "Point",
        "coordinates": [
          176.35430555555556,
          -37.74633333333333
        ]
      },
      "properties": {
        "id": "400001467994341",
        "type": "VRP",
        "designator": "VN278",
        "name": "Kaituna Bridge",
        "remark": "VRP"
      }
    },
    {
      "type": "Feature",
      "geometry": {
        "type": "Point",
        "coordinates": [
          174.76697222222222,
          -41.28436111111111
        ]
      },
      "properties": {
        "id": "400001482428850",
        "type": "VRP",
        "designator": "VN279",
        "name": "Observatory",
        "remark": "VRP"
      }
    },
    {
      "type": "Feature",
      "geometry": {
        "type": "Point",
        "coordinates": [
          174.83572222222224,
          -41.182472222222216
        ]
      },
      "properties": {
        "id": "400001482995411",
        "type": "VRP",
        "designator": "VN280",
        "name": "Grenada",
        "remark": "VRP"
      }
    },
    {
      "type": "Feature",
      "geometry": {
        "type": "Point",
        "coordinates": [
          174.70694444444445,
          -41.289
        ]
      },
      "properties": {
        "id": "400001482995414",
        "type": "VRP",
        "designator": "VN281",
        "name": "Makara Peak",
        "remark": "VRP"
      }
    },
    {
      "type": "Feature",
      "geometry": {
        "type": "Point",
        "coordinates": [
          174.95541666666665,
          -40.98280555555556
        ]
      },
      "properties": {
        "id": "400001514253007",
        "type": "VRP",
        "designator": "VN282",
        "name": "Paekakariki",
        "remark": "VRP"
      }
    },
    {
      "type": "Feature",
      "geometry": {
        "type": "Point",
        "coordinates": [
          175.0488611111111,
          -40.84886111111111
        ]
      },
      "properties": {
        "id": "400001514253010",
        "type": "VRP",
        "designator": "VN283",
        "name": "Pekapeka Ponds",
        "remark": "VRP"
      }
    },
    {
      "type": "Feature",
      "geometry": {
        "type": "Point",
        "coordinates": [
          175.05069166666667,
          -39.869841666666666
        ]
      },
      "properties": {
        "id": "400001536890570",
        "type": "VRP",
        "designator": "VN284",
        "name": "Brunswick Substation",
        "remark": "VRP"
      }
    },
    {
      "type": "Feature",
      "geometry": {
        "type": "Point",
        "coordinates": [
          174.96237777777776,
          -39.92211666666667
        ]
      },
      "properties": {
        "id": "400001536890585",
        "type": "VRP",
        "designator": "VN285",
        "name": "Castlecliff",
        "remark": "VRP"
      }
    },
    {
      "type": "Feature",
      "geometry": {
        "type": "Point",
        "coordinates": [
          174.900325,
          -39.886361111111114
        ]
      },
      "properties": {
        "id": "400001536890928",
        "type": "VRP",
        "designator": "VN286",
        "name": "Kai Iwi Beach",
        "remark": "VRP"
      }
    },
    {
      "type": "Feature",
      "geometry": {
        "type": "Point",
        "coordinates": [
          174.999125,
          -39.895022222222224
        ]
      },
      "properties": {
        "id": "400001536890931",
        "type": "VRP",
        "designator": "VN287",
        "name": "Lake Westmere",
        "remark": "VRP"
      }
    },
    {
      "type": "Feature",
      "geometry": {
        "type": "Point",
        "coordinates": [
          175.0944,
          -39.98285277777778
        ]
      },
      "properties": {
        "id": "400001536890934",
        "type": "VRP",
        "designator": "VN288",
        "name": "Prison",
        "remark": "VRP"
      }
    },
    {
      "type": "Feature",
      "geometry": {
        "type": "Point",
        "coordinates": [
          175.06922777777777,
          -39.92658611111111
        ]
      },
      "properties": {
        "id": "400001536890937",
        "type": "VRP",
        "designator": "VN289",
        "name": "Water Tower",
        "remark": "VRP"
      }
    },
    {
      "type": "Feature",
      "geometry": {
        "type": "Point",
        "coordinates": [
          174.98968333333332,
          -39.945255555555555
        ]
      },
      "properties": {
        "id": "400001536890940",
        "type": "VRP",
        "designator": "VN290",
        "name": "Whanganui Port",
        "remark": "VRP"
      }
    },
    {
      "type": "Feature",
      "geometry": {
        "type": "Point",
        "coordinates": [
          174.58305555555555,
          -36.59666666666667
        ]
      },
      "properties": {
        "id": "400001551158190",
        "type": "VRP",
        "designator": "VN291",
        "name": "Wainui Shed",
        "remark": "VRP"
      }
    },
    {
      "type": "Feature",
      "geometry": {
        "type": "Point",
        "coordinates": [
          174.4322222222222,
          -36.52305555555555
        ]
      },
      "properties": {
        "id": "400001551158193",
        "type": "VRP",
        "designator": "VN292",
        "name": "Red Horn",
        "remark": "VRP"
      }
    },
    {
      "type": "Feature",
      "geometry": {
        "type": "Point",
        "coordinates": [
          174.73555555555555,
          -36.50277777777778
        ]
      },
      "properties": {
        "id": "400001551158196",
        "type": "VRP",
        "designator": "VN293",
        "name": "Sadler Point",
        "remark": "VRP"
      }
    },